[
  {"name":"广西医科大学第一附属医院","lat":22.8243,"lng":108.3501,"city":"南宁市","level":"三甲","address":"南宁市双拥路6号"},
  {"name":"广西壮族自治区人民医院","lat":22.8184,"lng":108.3827,"city":"南宁市","level":"三甲","address":"南宁市桂春路6号"},
  {"name":"广西中医药大学第一附属医院","lat":22.8216,"lng":108.3675,"city":"南宁市","level":"三甲","address":"南宁市明秀东路89-9号"},
  {"name":"南宁市第一人民医院","lat":22.8062,"lng":108.3312,"city":"南宁市","level":"三甲","address":"南宁市桃源路89号"},
  {"name":"柳州市工人医院","lat":24.3141,"lng":109.4102,"city":"柳州市","level":"三甲","address":"柳州市白沙路1号"},
  {"name":"柳州市人民医院","lat":24.3312,"lng":109.4231,"city":"柳州市","level":"三甲","address":"柳州市文惠路8号"},
  {"name":"广西壮族自治区南溪山医院","lat":25.2524,"lng":110.2706,"city":"桂林市","level":"三甲","address":"桂林市南溪山路26号"},
  {"name":"桂林市人民医院","lat":25.2712,"lng":110.2935,"city":"桂林市","level":"三甲","address":"桂林市文明路12号"},
  {"name":"桂林医学院附属医院","lat":25.2846,"lng":110.2789,"city":"桂林市","level":"三甲","address":"桂林市乐群路15号"},
  {"name":"梧州市红十字会医院","lat":23.4781,"lng":111.2824,"city":"梧州市","level":"三甲","address":"梧州市中山一路45号"},
  {"name":"梧州市人民医院","lat":23.4713,"lng":111.2654,"city":"梧州市","level":"三乙","address":"梧州市富民三路"},
  {"name":"北海市人民医院","lat":21.4803,"lng":109.1242,"city":"北海市","level":"三甲","address":"北海市廉州镇场背路"},
  {"name":"防城港市第一人民医院","lat":21.6943,"lng":108.3564,"city":"防城港市","level":"三甲","address":"防城港市华林路"},
  {"name":"钦州市第一人民医院","lat":21.9812,"lng":108.6624,"city":"钦州市","level":"三甲","address":"钦州市中山路50号"},
  {"name":"贵港市人民医院","lat":23.1143,"lng":109.6015,"city":"贵港市","level":"三甲","address":"贵港市贵城街道"},
  {"name":"玉林市第一人民医院","lat":22.6418,"lng":110.1653,"city":"玉林市","level":"三甲","address":"玉林市新民路"},
  {"name":"百色市人民医院","lat":23.9078,"lng":106.6231,"city":"百色市","level":"三甲","address":"百色市城东路"},
  {"name":"贺州市人民医院","lat":24.4089,"lng":111.5724,"city":"贺州市","level":"三甲","address":"贺州市桂岭路"},
  {"name":"河池市人民医院","lat":24.7021,"lng":108.0832,"city":"河池市","level":"三甲","address":"河池市金城江区民主路"},
  {"name":"来宾市人民医院","lat":23.7543,"lng":109.2246,"city":"来宾市","level":"三甲","address":"来宾市兴宾区来宾大道"},
  {"name":"崇左市人民医院","lat":22.3798,"lng":107.3672,"city":"崇左市","level":"三甲","address":"崇左市工业大道"}
]
