[
  {"name":"南宁市体育中心应急避难场所","lat":22.8219,"lng":108.3943,"city":"南宁市","capacity":50000,"type":"中心"},
  {"name":"南宁市人民公园应急避难场所","lat":22.8382,"lng":108.3615,"city":"南宁市","capacity":30000,"type":"固定"},
  {"name":"南宁市青秀山应急避难场所","lat":22.7832,"lng":108.4118,"city":"南宁市","capacity":20000,"type":"固定"},
  {"name":"南宁市民族体育场应急避难场所","lat":22.8143,"lng":108.3285,"city":"南宁市","capacity":25000,"type":"固定"},
  {"name":"柳州市柳南区应急避难场所","lat":24.3021,"lng":109.4356,"city":"柳州市","capacity":15000,"type":"固定"},
  {"name":"柳州市体育中心应急避难场所","lat":24.3387,"lng":109.4513,"city":"柳州市","capacity":40000,"type":"中心"},
  {"name":"柳州市人民广场应急避难场所","lat":24.3278,"lng":109.4276,"city":"柳州市","capacity":20000,"type":"固定"},
  {"name":"桂林市七星公园应急避难场所","lat":25.2743,"lng":110.3126,"city":"桂林市","capacity":30000,"type":"中心"},
  {"name":"桂林市桃花江应急避难场所","lat":25.2984,"lng":110.2612,"city":"桂林市","capacity":15000,"type":"固定"},
  {"name":"梧州市玫瑰湖应急避难场所","lat":23.4643,"lng":111.2914,"city":"梧州市","capacity":20000,"type":"固定"},
  {"name":"梧州市体育中心应急避难场所","lat":23.4821,"lng":111.3012,"city":"梧州市","capacity":25000,"type":"中心"},
  {"name":"北海市银滩公园应急避难场所","lat":21.4312,"lng":109.1423,"city":"北海市","capacity":20000,"type":"固定"},
  {"name":"北海市体育中心应急避难场所","lat":21.4812,"lng":109.1234,"city":"北海市","capacity":18000,"type":"中心"},
  {"name":"防城港市体育场应急避难场所","lat":21.6984,"lng":108.3623,"city":"防城港市","capacity":12000,"type":"固定"},
  {"name":"钦州市体育场应急避难场所","lat":21.9863,"lng":108.6712,"city":"钦州市","capacity":15000,"type":"固定"},
  {"name":"贵港市体育中心应急避难场所","lat":23.1187,"lng":109.6143,"city":"贵港市","capacity":20000,"type":"中心"},
  {"name":"玉林市体育中心应急避难场所","lat":22.6413,"lng":110.1724,"city":"玉林市","capacity":25000,"type":"中心"},
  {"name":"玉林市人民公园应急避难场所","lat":22.6523,"lng":110.1563,"city":"玉林市","capacity":12000,"type":"固定"},
  {"name":"百色市体育中心应急避难场所","lat":23.9112,"lng":106.6287,"city":"百色市","capacity":15000,"type":"中心"},
  {"name":"贺州市体育场应急避难场所","lat":24.4123,"lng":111.5812,"city":"贺州市","capacity":10000,"type":"固定"},
  {"name":"河池市体育场应急避难场所","lat":24.7043,"lng":108.0913,"city":"河池市","capacity":12000,"type":"固定"},
  {"name":"来宾市体育中心应急避难场所","lat":23.7612,"lng":109.2314,"city":"来宾市","capacity":15000,"type":"中心"},
  {"name":"崇左市体育场应急避难场所","lat":22.3824,"lng":107.3715,"city":"崇左市","capacity":10000,"type":"固定"}
]
